Longitud_A,Latitud_A,Longitud_B,Latitud_B,Nombre_Origen,Nombre_Destino,Accesibilidad,Conductor,Telefono
-78.5054,-0.2192,-78.5167,-0.2189,Colegio Central Quito,Terminal Sur Quito,Estándar,Juan García,0999123456
-78.5100,-0.2300,-78.5000,-0.2100,Escuela Norte María Auxiliadora,Centro Comercial Amazonas,Preferente,María López,0999234567
-78.5200,-0.2400,-78.5050,-0.2250,Instituto Técnico Mitad del Mundo,Parque La Carolina,Estándar,Carlos Ruiz,0999345678
-78.4900,-0.2500,-78.5300,-0.2100,Unidad Educativa San Gabriel,Hospital Metropolitano,Especial,Ana Martínez,0999456789
-78.5300,-0.2050,-78.4850,-0.2350,Liceo de Jóvenes Los Reyes,Centro Cívico Quito,Estándar,Pedro Sánchez,0999567890
-78.5150,-0.2280,-78.5200,-0.2150,Escuela Pichincha,Biblioteca Metropolitana,Preferente,Rosa González,0999678901
-78.5050,-0.2100,-78.5250,-0.2300,Colegio Técnico Industrial,Parque Metropolitano,Estándar,Luis Fernández,0999789012
-78.5200,-0.2200,-78.4950,-0.2400,Escuela Rural Cayambe,Mercado Mayorista,Especial,Miguel Torres,0999890123
